{
"type": "FeatureCollection",
"crs": { "type": "name", "properties": { "name": "urn:ogc:def:crs:OGC:1.3:CRS84" } },
"name": "Photo témoin",
"color": "#4f04a4",
"marker-width": "15",
"Outline width": "30",
"active": "true",
"interactive": "true",
"description": "Evolution du paysage à partir d'une carte postale ancienne",

"features": [
{ "type": "Feature", "properties": { "NOM": "alles" }, "geometry": { "type": "Point", "coordinates": [ 0.86248, 44.85886 ] } },
{ "type": "Feature", "properties": { "NOM": "badefols" }, "geometry": { "type": "Point", "coordinates": [ 0.79625, 44.84068 ] } },
{ "type": "Feature", "properties": { "NOM": "badefols2" }, "geometry": { "type": "Point", "coordinates": [ 0.78857, 44.84459 ] } },
{ "type": "Feature", "properties": { "NOM": "badefols3" }, "geometry": { "type": "Point", "coordinates": [ 0.81025, 44.85482 ] } },
{ "type": "Feature", "properties": { "NOM": "baneuil" }, "geometry": { "type": "Point", "coordinates": [ 0.70054, 44.82921 ] } },
{ "type": "Feature", "properties": { "NOM": "bayac" }, "geometry": { "type": "Point", "coordinates": [ 0.72972, 44.8078 ] } },
{ "type": "Feature", "properties": { "NOM": "beaumont" }, "geometry": { "type": "Point", "coordinates": [ 0.75873, 44.76909 ] } },
{ "type": "Feature", "properties": { "NOM": "beaumont centre" }, "geometry": { "type": "Point", "coordinates": [ 0.76724, 44.7687 ] } },
{ "type": "Feature", "properties": { "NOM": "beaumont nord" }, "geometry": { "type": "Point", "coordinates": [ 0.76449, 44.7722 ] } },
{ "type": "Feature", "properties": { "NOM": "bannes" }, "geometry": { "type": "Point", "coordinates": [ 0.75008, 44.79398 ] } },
{ "type": "Feature", "properties": { "NOM": "nojals" }, "geometry": { "type": "Point", "coordinates": [ 0.75882, 44.72499 ] } },
{ "type": "Feature", "properties": { "NOM": "sainte sabine centre" }, "geometry": { "type": "Point", "coordinates": [ 0.75197, 44.69267 ] } },
{ "type": "Feature", "properties": { "NOM": "biron" }, "geometry": { "type": "Point", "coordinates": [ 0.87512, 44.63012 ] } },
{ "type": "Feature", "properties": { "NOM": "bourniquel" }, "geometry": { "type": "Point", "coordinates": [ 0.78101, 44.81788 ] } },
{ "type": "Feature", "properties": { "NOM": "buisson" }, "geometry": { "type": "Point", "coordinates": [ 0.90995, 44.84085 ] } },
{ "type": "Feature", "properties": { "NOM": "buisson centre" }, "geometry": { "type": "Point", "coordinates": [ 0.91195, 44.8459 ] } },
{ "type": "Feature", "properties": { "NOM": "cadouin" }, "geometry": { "type": "Point", "coordinates": [ 0.87316, 44.81003 ] } },
{ "type": "Feature", "properties": { "NOM": "cadouin centre" }, "geometry": { "type": "Point", "coordinates": [ 0.87291, 44.81188 ] } },
{ "type": "Feature", "properties": { "NOM": "cadouin centre 2" }, "geometry": { "type": "Point", "coordinates": [ 0.87219, 44.81168 ] } },
{ "type": "Feature", "properties": { "NOM": "paleyrac" }, "geometry": { "type": "Point", "coordinates": [ 0.93181, 44.82312 ] } },
{ "type": "Feature", "properties": { "NOM": "cales" }, "geometry": { "type": "Point", "coordinates": [ 0.81233, 44.85604 ] } },
{ "type": "Feature", "properties": { "NOM": "capdropt" }, "geometry": { "type": "Point", "coordinates": [ 0.91733, 44.68197 ] } },
{ "type": "Feature", "properties": { "NOM": "cause" }, "geometry": { "type": "Point", "coordinates": [ 0.66773, 44.86305 ] } },
{ "type": "Feature", "properties": { "NOM": "couze" }, "geometry": { "type": "Point", "coordinates": [ 0.70096, 44.82895 ] } },
{ "type": "Feature", "properties": { "NOM": "couze canal" }, "geometry": { "type": "Point", "coordinates": [ 0.70418, 44.83398 ] } },
{ "type": "Feature", "properties": { "NOM": "gaugeac" }, "geometry": { "type": "Point", "coordinates": [ 0.86505, 44.65791 ] } },
{ "type": "Feature", "properties": { "NOM": "lalinde porte" }, "geometry": { "type": "Point", "coordinates": [ 0.73636, 44.83608 ] } },
{ "type": "Feature", "properties": { "NOM": "lalinde" }, "geometry": { "type": "Point", "coordinates": [ 0.74008, 44.83314 ] } },
{ "type": "Feature", "properties": { "NOM": "lalinde place" }, "geometry": { "type": "Point", "coordinates": [ 0.73836, 44.83599 ] } },
{ "type": "Feature", "properties": { "NOM": "lanquais" }, "geometry": { "type": "Point", "coordinates": [ 0.67501, 44.82375 ] } },
{ "type": "Feature", "properties": { "NOM": "lanquais centre" }, "geometry": { "type": "Point", "coordinates": [ 0.66997, 44.82345 ] } },
{ "type": "Feature", "properties": { "NOM": "liorac" }, "geometry": { "type": "Point", "coordinates": [ 0.64846, 44.89617 ] } },
{ "type": "Feature", "properties": { "NOM": "liorac centre 2" }, "geometry": { "type": "Point", "coordinates": [ 0.64524, 44.89754 ] } },
{ "type": "Feature", "properties": { "NOM": "mauzac" }, "geometry": { "type": "Point", "coordinates": [ 0.79663, 44.86452 ] } },
{ "type": "Feature", "properties": { "NOM": "mauzac canal" }, "geometry": { "type": "Point", "coordinates": [ 0.80485, 44.86129 ] } },
{ "type": "Feature", "properties": { "NOM": "moliere" }, "geometry": { "type": "Point", "coordinates": [ 0.82199, 44.80865 ] } },
{ "type": "Feature", "properties": { "NOM": "moliere centre" }, "geometry": { "type": "Point", "coordinates": [ 0.82356, 44.80971 ] } },
{ "type": "Feature", "properties": { "NOM": "monpazier centre" }, "geometry": { "type": "Point", "coordinates": [ 0.89421, 44.67996 ] } },
{ "type": "Feature", "properties": { "NOM": "monpazier eglise" }, "geometry": { "type": "Point", "coordinates": [ 0.89456, 44.6809 ] } },
{ "type": "Feature", "properties": { "NOM": "monpazier porte" }, "geometry": { "type": "Point", "coordinates": [ 0.89428, 44.6799 ] } },
{ "type": "Feature", "properties": { "NOM": "monsac" }, "geometry": { "type": "Point", "coordinates": [ 0.69943, 44.77788 ] } },
{ "type": "Feature", "properties": { "NOM": "monsac centre" }, "geometry": { "type": "Point", "coordinates": [ 0.69579, 44.77928 ] } },
{ "type": "Feature", "properties": { "NOM": "montferrand centre" }, "geometry": { "type": "Point", "coordinates": [ 0.86638, 44.75052 ] } },
{ "type": "Feature", "properties": { "NOM": "montfferand" }, "geometry": { "type": "Point", "coordinates": [ 0.86859, 44.75391 ] } },
{ "type": "Feature", "properties": { "NOM": "pressignac" }, "geometry": { "type": "Point", "coordinates": [ 0.72085, 44.89528 ] } },
{ "type": "Feature", "properties": { "NOM": "rampieux" }, "geometry": { "type": "Point", "coordinates": [ 0.79756, 44.70677 ] } },
{ "type": "Feature", "properties": { "NOM": "saint avit senieur" }, "geometry": { "type": "Point", "coordinates": [ 0.81661, 44.772 ] } },
{ "type": "Feature", "properties": { "NOM": "saint avit senieur 2" }, "geometry": { "type": "Point", "coordinates": [ 0.81334, 44.77404 ] } },
{ "type": "Feature", "properties": { "NOM": "saint capraise lalinde" }, "geometry": { "type": "Point", "coordinates": [ 0.65479, 44.84047 ] } },
{ "type": "Feature", "properties": { "NOM": "saint capraise usine" }, "geometry": { "type": "Point", "coordinates": [ 0.63416, 44.84167 ] } },
{ "type": "Feature", "properties": { "NOM": "saint felix villadeix" }, "geometry": { "type": "Point", "coordinates": [ 0.68342, 44.92355 ] } },
{ "type": "Feature", "properties": { "NOM": "sainte foy de longas" }, "geometry": { "type": "Point", "coordinates": [ 0.7506, 44.92528 ] } },
{ "type": "Feature", "properties": { "NOM": "marcory" }, "geometry": { "type": "Point", "coordinates": [ 0.93205, 44.72388 ] } },
{ "type": "Feature", "properties": { "NOM": "tremolat cingle" }, "geometry": { "type": "Point", "coordinates": [ 0.82335, 44.88568 ] } },
{ "type": "Feature", "properties": { "NOM": "tremolat" }, "geometry": { "type": "Point", "coordinates": [ 0.82822, 44.87605 ] } },
{ "type": "Feature", "properties": { "NOM": "tremolat bourg" }, "geometry": { "type": "Point", "coordinates": [ 0.8304, 44.87542 ] } },
{ "type": "Feature", "properties": { "NOM": "urval" }, "geometry": { "type": "Point", "coordinates": [ 0.94828, 44.81419 ] } },
{ "type": "Feature", "properties": { "NOM": "varennes" }, "geometry": { "type": "Point", "coordinates": [ 0.67348, 44.83051 ] } },
{ "type": "Feature", "properties": { "NOM": "verdon" }, "geometry": { "type": "Point", "coordinates": [ 0.62966, 44.81633 ] } },
{ "type": "Feature", "properties": { "NOM": "vergt de biron" }, "geometry": { "type": "Point", "coordinates": [ 0.84371, 44.63561 ] } },
{ "type": "Feature", "properties": { "NOM": "sainte croix" }, "geometry": { "type": "Point", "coordinates": [ 0.83025, 44.74034 ] } },
{ "type": "Feature", "properties": { "NOM": "marsales" }, "geometry": { "type": "Point", "coordinates": [ 0.88441, 44.6995 ] } }
]
}
