{
"type": "FeatureCollection",
"crs": { "type": "name", "properties": { "name": "urn:ogc:def:crs:OGC:1.3:CRS84" } },
"name": "Documents d'urbanisme",
"color": "#1D1D1B",
"active": "true",
"description": "Documents approuvés",

"features": [
{ "type": "Feature", "properties": { "NOM": "saint-félix-de-villadeix" }, "geometry": { "type": "Point", "coordinates": [ 0.682438386274316, 44.923844995063824 ] } },
{ "type": "Feature", "properties": { "NOM": "saint-cassien" }, "geometry": { "type": "Point", "coordinates": [ 0.845651566320625, 44.686118645562715 ] } },
{ "type": "Feature", "properties": { "NOM": "soulaures" }, "geometry": { "type": "Point", "coordinates": [ 0.922652340682551, 44.649345142374699 ] } },
{ "type": "Feature", "properties": { "NOM": "saint-marcel-du-périgord" }, "geometry": { "type": "Point", "coordinates": [ 0.712859064868086, 44.9159199770301 ] } },
{ "type": "Feature", "properties": { "NOM": "saint-marcory" }, "geometry": { "type": "Point", "coordinates": [ 0.930750536169002, 44.72288692304231 ] } },
{ "type": "Feature", "properties": { "NOM": "montferrand-du-périgord" }, "geometry": { "type": "Point", "coordinates": [ 0.86580571626824, 44.751292798513312 ] } },
{ "type": "Feature", "properties": { "NOM": "monpazier" }, "geometry": { "type": "Point", "coordinates": [ 0.895359332411575, 44.682642552450233 ] } },
{ "type": "Feature", "properties": { "NOM": "cause-de-clérans" }, "geometry": { "type": "Point", "coordinates": [ 0.66960618800721, 44.865030050177069 ] } },
{ "type": "Feature", "properties": { "NOM": "vergt-de-biron" }, "geometry": { "type": "Point", "coordinates": [ 0.841479467368668, 44.633600839714028 ] } },
{ "type": "Feature", "properties": { "NOM": "calès" }, "geometry": { "type": "Point", "coordinates": [ 0.811078614617329, 44.856027124244754 ] } },
{ "type": "Feature", "properties": { "NOM": "le buisson-de-cadouin" }, "geometry": { "type": "Point", "coordinates": [ 0.910250331441269, 44.846089818743202 ] } },
{ "type": "Feature", "properties": { "NOM": "saint-avit-sénieur" }, "geometry": { "type": "Point", "coordinates": [ 0.816744541860812, 44.775131904446994 ] } },
{ "type": "Feature", "properties": { "NOM": "liorac-sur-louyre" }, "geometry": { "type": "Point", "coordinates": [ 0.643169982442701, 44.897897767279801 ] } },
{ "type": "Feature", "properties": { "NOM": "saint-avit-rivière" }, "geometry": { "type": "Point", "coordinates": [ 0.882268202319943, 44.7522398865922 ] } },
{ "type": "Feature", "properties": { "NOM": "monsac" }, "geometry": { "type": "Point", "coordinates": [ 0.697691900624884, 44.7791394475258 ] } },
{ "type": "Feature", "properties": { "NOM": "pezuls" }, "geometry": { "type": "Point", "coordinates": [ 0.807029994416735, 44.913835415864121 ] } },
{ "type": "Feature", "properties": { "NOM": "baneuil" }, "geometry": { "type": "Point", "coordinates": [ 0.689620207567566, 44.851259699616172 ] } },
{ "type": "Feature", "properties": { "NOM": "biron" }, "geometry": { "type": "Point", "coordinates": [ 0.870593584306805, 44.631644807674256 ] } },
{ "type": "Feature", "properties": { "NOM": "pressignac-vicq" }, "geometry": { "type": "Point", "coordinates": [ 0.723106892476362, 44.894298305115932 ] } },
{ "type": "Feature", "properties": { "NOM": "capdrot" }, "geometry": { "type": "Point", "coordinates": [ 0.922402116113237, 44.681248212884412 ] } },
{ "type": "Feature", "properties": { "NOM": "sainte-croix" }, "geometry": { "type": "Point", "coordinates": [ 0.831951379808189, 44.738943492311563 ] } },
{ "type": "Feature", "properties": { "NOM": "verdon" }, "geometry": { "type": "Point", "coordinates": [ 0.631444855781685, 44.810135442489837 ] } },
{ "type": "Feature", "properties": { "NOM": "lolme" }, "geometry": { "type": "Point", "coordinates": [ 0.841583983067516, 44.710495425858177 ] } },
{ "type": "Feature", "properties": { "NOM": "saint-romain-de-monpazier" }, "geometry": { "type": "Point", "coordinates": [ 0.87265538498059, 44.717227604950153 ] } },
{ "type": "Feature", "properties": { "NOM": "lalinde" }, "geometry": { "type": "Point", "coordinates": [ 0.739471890151905, 44.838101606413218 ] } },
{ "type": "Feature", "properties": { "NOM": "Beaumont du Périgord" }, "geometry": { "type": "Point", "coordinates": [ 0.767768752939861, 44.768742595640163 ] } },
{ "type": "Feature", "properties": { "NOM": "naussannes" }, "geometry": { "type": "Point", "coordinates": [ 0.725347976215276, 44.757839477691661 ] } },
{ "type": "Feature", "properties": { "NOM": "mairie de marsalès" }, "geometry": { "type": "Point", "coordinates": [ 0.884626293878391, 44.688600456980865 ] } },
{ "type": "Feature", "properties": { "NOM": "alles-sur-dordogne" }, "geometry": { "type": "Point", "coordinates": [ 0.867869926842365, 44.859774862272019 ] } },
{ "type": "Feature", "properties": { "NOM": "trémolat" }, "geometry": { "type": "Point", "coordinates": [ 0.829496161350334, 44.876107667723744 ] } },
{ "type": "Feature", "properties": { "NOM": "saint-agne" }, "geometry": { "type": "Point", "coordinates": [ 0.632766176988876, 44.837289308598272 ] } },
{ "type": "Feature", "properties": { "NOM": "Gaugeac" }, "geometry": { "type": "Point", "coordinates": [ 0.879300632282766, 44.660158594692099 ] } },
{ "type": "Feature", "properties": { "NOM": "bayac" }, "geometry": { "type": "Point", "coordinates": [ 0.727482322168077, 44.80438043606614 ] } },
{ "type": "Feature", "properties": { "NOM": "lavalade" }, "geometry": { "type": "Point", "coordinates": [ 0.862994598469222, 44.695041751091274 ] } },
{ "type": "Feature", "properties": { "NOM": "molières" }, "geometry": { "type": "Point", "coordinates": [ 0.824096397604518, 44.811054834956707 ] } },
{ "type": "Feature", "properties": { "NOM": "sainte-foy-de-longas" }, "geometry": { "type": "Point", "coordinates": [ 0.750157510433775, 44.925826952565018 ] } },
{ "type": "Feature", "properties": { "NOM": "urval" }, "geometry": { "type": "Point", "coordinates": [ 0.947680456890598, 44.812518002110828 ] } },
{ "type": "Feature", "properties": { "NOM": "pontours" }, "geometry": { "type": "Point", "coordinates": [ 0.761300226416977, 44.836588996594088 ] } },
{ "type": "Feature", "properties": { "NOM": "mauzac" }, "geometry": { "type": "Point", "coordinates": [ 0.796052669525282, 44.865210595448673 ] } },
{ "type": "Feature", "properties": { "NOM": "lanquais" }, "geometry": { "type": "Point", "coordinates": [ 0.669546791276552, 44.824194082788715 ] } },
{ "type": "Feature", "properties": { "NOM": "rampieux" }, "geometry": { "type": "Point", "coordinates": [ 0.796943152340787, 44.715394890703259 ] } },
{ "type": "Feature", "properties": { "NOM": "saint-capraise-de-lalinde" }, "geometry": { "type": "Point", "coordinates": [ 0.654918564074937, 44.842765889607605 ] } },
{ "type": "Feature", "properties": { "NOM": "badefols-sur-dordogne" }, "geometry": { "type": "Point", "coordinates": [ 0.7907989512023, 44.842034855175001 ] } },
{ "type": "Feature", "properties": { "NOM": "varennes" }, "geometry": { "type": "Point", "coordinates": [ 0.675909503806103, 44.831289184002415 ] } },
{ "type": "Feature", "properties": { "NOM": "bouillac" }, "geometry": { "type": "Point", "coordinates": [ 0.91940772960186, 44.759758288102297 ] } },
{ "type": "Feature", "properties": { "NOM": "couze-et-saint-front" }, "geometry": { "type": "Point", "coordinates": [ 0.708082712854468, 44.828772635908855 ] } },
{ "type": "Feature", "properties": { "NOM": "bourniquel" }, "geometry": { "type": "Point", "coordinates": [ 0.773339321754012, 44.808926001104751 ] } }
]
}
